[{"url": "http://localhost:8080/uber", "status_code": 200, "call_id": 0, "payload": {"city_name": "Berlin", "country": "Germany", "location": {"latitude": 52.52000659999999, "longitude": 13.404953999999975}, "city_code": "BERL-sky", "population": 3671000}, "took": 1.816522}, {"url": "http://localhost:8080/uber", "status_code": 200, "call_id": 1, "payload": {"city_name": "Hamburg", "country": "Germany", "location": {"latitude": 53.5510846, "longitude": 9.99368179999999}, "city_code": "HAMB-sky", "population": 1686100}, "took": 1.638833}, {"url": "http://localhost:8080/uber", "status_code": 200, "call_id": 2, "payload": {"city_name": "Munich", "country": "Germany", "location": {"latitude": 48.1351253, "longitude": 11.581980599999952}, "city_code": "MUNI-sky", "population": 1185400}, "took": 1.631255}, {"url": "http://localhost:8080/uber", "status_code": 200, "call_id": 3, "payload": {"city_name": "Cologne", "country": "Germany", "location": {"latitude": 50.937531, "longitude": 6.960278600000038}, "city_code": "COLO-sky", "population": 1060582}, "took": 1.139872}, {"url": "http://localhost:8080/uber", "status_code": 200, "call_id": 4, "payload": {"city_name": "Frankfurt", "country": "Germany", "location": {"latitude": 50.11092209999999, "longitude": 8.682126700000026}, "city_code": "FRAN-sky", "population": 720000}, "took": 1.602635}, {"url": "http://localhost:8080/uber", "status_code": 200, "call_id": 5, "payload": {"city_name": "Dortmund", "country": "Germany", "location": {"latitude": 51.5135872, "longitude": 7.465298100000041}, "city_code": "DORT-sky", "population": 587600}, "took": 1.162601}, {"url": "http://localhost:8080/uber", "status_code": 200, "call_id": 6, "payload": {"city_name": "Stuttgart", "country": "Germany", "location": {"latitude": 48.7758459, "longitude": 9.182932100000016}, "city_code": "STUT-sky", "population": 581100}, "took": 1.18343}, {"url": "http://localhost:8080/uber", "status_code": 200, "call_id": 7, "payload": {"city_name": "Dusseldorf", "country": "Germany", "location": {"latitude": 51.2277411, "longitude": 6.773455600000034}, "city_code": "DUSS-sky", "population": 568900}, "took": 1.182965}, {"url": "http://localhost:8080/uber", "status_code": 200, "call_id": 8, "payload": {"city_name": "Bremen", "country": "Germany", "location": {"latitude": 53.07929619999999, "longitude": 8.801693699999987}, "city_code": "BREM-sky", "population": 527900}, "took": 1.582507}, {"url": "http://localhost:8080/uber", "status_code": 200, "call_id": 9, "payload": {"city_name": "Hanover", "country": "Germany", "location": {"latitude": 52.3758916, "longitude": 9.732010400000036}, "city_code": "HANN-sky", "population": 516300}, "took": 1.231598}, {"url": "http://localhost:8080/uber", "status_code": 200, "call_id": 10, "payload": {"city_name": "Nuremberg", "country": "Germany", "location": {"latitude": 49.4254092, "longitude": 49.4254092}, "city_code": "NURE-sky", "population": 486700}, "took": 1.155653}, {"url": "http://localhost:8080/uber", "status_code": 200, "call_id": 11, "payload": {"city_name": "Leipzig", "country": "Germany", "location": {"latitude": 51.3396955, "longitude": 12.373074699999961}, "city_code": "LEIP-sky", "population": 486100}, "took": 1.160078}, {"url": "http://localhost:8080/uber", "status_code": 200, "call_id": 12, "payload": {"city_name": "Dresden", "country": "Germany", "location": {"latitude": 51.05040880000001, "longitude": 13.737262099999953}, "city_code": "DRES-sky", "population": 473300}, "took": 1.583369}, {"url": "http://localhost:8080/uber", "status_code": 200, "call_id": 13, "payload": {"city_name": "London", "country": "United Kingdom", "location": {"latitude": 51.5073509, "longitude": -0.12775829999998223}, "city_code": "LOND-sky", "population": 8673713}, "took": 1.754396}, {"url": "http://localhost:8080/uber", "status_code": 200, "call_id": 14, "payload": {"city_name": "Birmingham", "country": "United Kingdom", "location": {"latitude": 52.48624299999999, "longitude": -1.8904009999999971}, "city_code": "BIRM-sky", "population": 1111307}, "took": 1.770905}, {"url": "http://localhost:8080/uber", "status_code": 200, "call_id": 15, "payload": {"city_name": "Leeds", "country": "United Kingdom", "location": {"latitude": 53.8007554, "longitude": -1.5490773999999874}, "city_code": "LEED-sky", "population": 774060}, "took": 1.706718}, {"url": "http://localhost:8080/uber", "status_code": 200, "call_id": 16, "payload": {"city_name": "Glasgow", "country": "United Kingdom", "location": {"latitude": 55.864237, "longitude": -4.251805999999988}, "city_code": "GLAS-sky", "population": 606340}, "took": 2.093797}, {"url": "http://localhost:8080/uber", "status_code": 200, "call_id": 17, "payload": {"city_name": "Sheffield", "country": "United Kingdom", "location": {"latitude": 53.38112899999999, "longitude": -1.47008500000004}, "city_code": "DONC-sky", "population": 569737}, "took": 1.717688}, {"url": "http://localhost:8080/uber", "status_code": 200, "call_id": 18, "payload": {"city_name": "Bradford", "country": "United Kingdom", "location": {"latitude": 53.795984, "longitude": -1.7593980000000329}, "city_code": "BFDA-sky", "population": 531176}, "took": 1.590725}, {"url": "http://localhost:8080/uber", "status_code": 200, "call_id": 19, "payload": {"city_name": "Manchester", "country": "United Kingdom", "location": {"latitude": 53.4807593, "longitude": -2.2426305000000184}, "city_code": "MANC-sky", "population": 530292}, "took": 1.552677}, {"url": "http://localhost:8080/uber", "status_code": 200, "call_id": 20, "payload": {"city_name": "Edinburgh", "country": "United Kingdom", "location": {"latitude": 55.953252, "longitude": -3.188266999999996}, "city_code": "EDIN-sky", "population": 498810}, "took": 1.598238}, {"url": "http://localhost:8080/uber", "status_code": 200, "call_id": 21, "payload": {"city_name": "Liverpool", "country": "United Kingdom", "location": {"latitude": 53.4083714, "longitude": -2.9915726000000404}, "city_code": "LIVE-sky", "population": 478580}, "took": 1.731269}, {"url": "http://localhost:8080/uber", "status_code": 200, "call_id": 22, "payload": {"city_name": "Bristol", "country": "United Kingdom", "location": {"latitude": 51.454513, "longitude": -2.5879099999999653}, "city_code": "BRIS-sky", "population": 449328}, "took": 1.740054}, {"url": "http://localhost:8080/uber", "status_code": 200, "call_id": 23, "payload": {"city_name": "Madrid", "country": "Spain", "location": {"latitude": 40.4167754, "longitude": -3.7037901999999576}, "city_code": "MADR-sky", "population": 3141991}, "took": 1.735931}, {"url": "http://localhost:8080/uber", "status_code": 200, "call_id": 24, "payload": {"city_name": "Barcelona", "country": "Spain", "location": {"latitude": 41.38506389999999, "longitude": 2.1734034999999494}, "city_code": "BARC-sky", "population": 1608746}, "took": 2.104555}, {"url": "http://localhost:8080/uber", "status_code": 200, "call_id": 25, "payload": {"city_name": "Valencia", "country": "Spain", "location": {"latitude": 39.4699075, "longitude": -0.3762881000000107}, "city_code": "VALE-sky", "population": 786189}, "took": 1.141279}, {"url": "http://localhost:8080/uber", "status_code": 200, "call_id": 26, "payload": {"city_name": "Seville", "country": "Spain", "location": {"latitude": 37.3890924, "longitude": -5.984458899999936}, "city_code": "SEVI-sky", "population": 693878}, "took": 1.219812}, {"url": "http://localhost:8080/uber", "status_code": 200, "call_id": 27, "payload": {"city_name": "Zaragoza", "country": "Spain", "location": {"latitude": 41.64882259999999, "longitude": -0.8890853000000334}, "city_code": "ZARA-sky", "population": 664953}, "took": 1.179956}, {"url": "http://localhost:8080/uber", "status_code": 200, "call_id": 28, "payload": {"city_name": "Malaga", "country": "Spain", "location": {"latitude": 36.721261, "longitude": -4.421265500000004}, "city_code": "MALA-sky", "population": 569130}, "took": 1.544254}, {"url": "http://localhost:8080/uber", "status_code": 200, "call_id": 29, "payload": {"city_name": "Murcia", "country": "Spain", "location": {"latitude": 37.99223990000001, "longitude": -1.1306544000000258}, "city_code": "MURC-sky", "population": 439889}, "took": 1.208308}, {"url": "http://localhost:8080/uber", "status_code": 200, "call_id": 30, "payload": {"city_name": "Palma de Mallorca", "country": "Spain", "location": {"latitude": 39.5696005, "longitude": 2.6501603000000387}, "city_code": "PALM-sky", "population": 400578}, "took": 1.173851}, {"url": "http://localhost:8080/uber", "status_code": 200, "call_id": 31, "payload": {"city_name": "Rome", "country": "Italy", "location": {"latitude": 41.90278349999999, "longitude": 12.496365500000024}, "city_code": "ROME-sky", "population": 2870336}, "took": 1.172066}, {"url": "http://localhost:8080/uber", "status_code": 200, "call_id": 32, "payload": {"city_name": "Milan", "country": "Italy", "location": {"latitude": 45.4654219, "longitude": 9.18592430000001}, "city_code": "MILA-sky", "population": 1368590}, "took": 2.592943}, {"url": "http://localhost:8080/uber", "status_code": 200, "call_id": 33, "payload": {"city_name": "Naples", "country": "Italy", "location": {"latitude": 40.8517746, "longitude": 14.268124400000033}, "city_code": "NAPL-sky", "population": 972638}, "took": 1.214694}, {"url": "http://localhost:8080/uber", "status_code": 200, "call_id": 34, "payload": {"city_name": "Turin", "country": "Italy", "location": {"latitude": 45.063299, "longitude": 7.669288999999935}, "city_code": "TURI-sky", "population": 892649}, "took": 1.10007}, {"url": "http://localhost:8080/uber", "status_code": 200, "call_id": 35, "payload": {"city_name": "Palermo", "country": "Italy", "location": {"latitude": 38.1156209, "longitude": 13.361318299999994}, "city_code": "PALE-sky", "population": 673073}, "took": 1.048137}, {"url": "http://localhost:8080/uber", "status_code": 200, "call_id": 36, "payload": {"city_name": "Paris", "country": "France", "location": {"latitude": 48.85661400000001, "longitude": 2.3522219000000177}, "city_code": "PARI-sky", "population": 2244000}, "took": 2.044143}, {"url": "http://localhost:8080/uber", "status_code": 200, "call_id": 37, "payload": {"city_name": "Berlin", "country": "Germany", "location": {"latitude": 52.52000659999999, "longitude": 13.404953999999975}, "city_code": "BERL-sky", "population": 3671000}, "took": 1.618591}, {"url": "http://localhost:8080/uber", "status_code": 200, "call_id": 38, "payload": {"city_name": "Hamburg", "country": "Germany", "location": {"latitude": 53.5510846, "longitude": 9.99368179999999}, "city_code": "HAMB-sky", "population": 1686100}, "took": 1.1839}, {"url": "http://localhost:8080/uber", "status_code": 200, "call_id": 39, "payload": {"city_name": "Munich", "country": "Germany", "location": {"latitude": 48.1351253, "longitude": 11.581980599999952}, "city_code": "MUNI-sky", "population": 1185400}, "took": 1.56015}, {"url": "http://localhost:8080/uber", "status_code": 200, "call_id": 40, "payload": {"city_name": "Cologne", "country": "Germany", "location": {"latitude": 50.937531, "longitude": 6.960278600000038}, "city_code": "COLO-sky", "population": 1060582}, "took": 2.093906}, {"url": "http://localhost:8080/uber", "status_code": 200, "call_id": 41, "payload": {"city_name": "Frankfurt", "country": "Germany", "location": {"latitude": 50.11092209999999, "longitude": 8.682126700000026}, "city_code": "FRAN-sky", "population": 720000}, "took": 1.179436}, {"url": "http://localhost:8080/uber", "status_code": 200, "call_id": 42, "payload": {"city_name": "Dortmund", "country": "Germany", "location": {"latitude": 51.5135872, "longitude": 7.465298100000041}, "city_code": "DORT-sky", "population": 587600}, "took": 1.229811}, {"url": "http://localhost:8080/uber", "status_code": 200, "call_id": 43, "payload": {"city_name": "Stuttgart", "country": "Germany", "location": {"latitude": 48.7758459, "longitude": 9.182932100000016}, "city_code": "STUT-sky", "population": 581100}, "took": 1.090981}, {"url": "http://localhost:8080/uber", "status_code": 200, "call_id": 44, "payload": {"city_name": "Dusseldorf", "country": "Germany", "location": {"latitude": 51.2277411, "longitude": 6.773455600000034}, "city_code": "DUSS-sky", "population": 568900}, "took": 1.419448}, {"url": "http://localhost:8080/uber", "status_code": 200, "call_id": 45, "payload": {"city_name": "Bremen", "country": "Germany", "location": {"latitude": 53.07929619999999, "longitude": 8.801693699999987}, "city_code": "BREM-sky", "population": 527900}, "took": 1.238131}, {"url": "http://localhost:8080/uber", "status_code": 200, "call_id": 46, "payload": {"city_name": "Hanover", "country": "Germany", "location": {"latitude": 52.3758916, "longitude": 9.732010400000036}, "city_code": "HANN-sky", "population": 516300}, "took": 1.68659}, {"url": "http://localhost:8080/uber", "status_code": 200, "call_id": 47, "payload": {"city_name": "Nuremberg", "country": "Germany", "location": {"latitude": 49.4254092, "longitude": 49.4254092}, "city_code": "NURE-sky", "population": 486700}, "took": 1.152593}, {"url": "http://localhost:8080/uber", "status_code": 200, "call_id": 48, "payload": {"city_name": "Leipzig", "country": "Germany", "location": {"latitude": 51.3396955, "longitude": 12.373074699999961}, "city_code": "LEIP-sky", "population": 486100}, "took": 1.489392}, {"url": "http://localhost:8080/uber", "status_code": 200, "call_id": 49, "payload": {"city_name": "Dresden", "country": "Germany", "location": {"latitude": 51.05040880000001, "longitude": 13.737262099999953}, "city_code": "DRES-sky", "population": 473300}, "took": 1.219389}, {"url": "http://localhost:8080/uber", "status_code": 200, "call_id": 50, "payload": {"city_name": "London", "country": "United Kingdom", "location": {"latitude": 51.5073509, "longitude": -0.12775829999998223}, "city_code": "LOND-sky", "population": 8673713}, "took": 1.70225}, {"url": "http://localhost:8080/uber", "status_code": 200, "call_id": 51, "payload": {"city_name": "Birmingham", "country": "United Kingdom", "location": {"latitude": 52.48624299999999, "longitude": -1.8904009999999971}, "city_code": "BIRM-sky", "population": 1111307}, "took": 1.656068}, {"url": "http://localhost:8080/uber", "status_code": 200, "call_id": 52, "payload": {"city_name": "Leeds", "country": "United Kingdom", "location": {"latitude": 53.8007554, "longitude": -1.5490773999999874}, "city_code": "LEED-sky", "population": 774060}, "took": 2.605284}, {"url": "http://localhost:8080/uber", "status_code": 200, "call_id": 53, "payload": {"city_name": "Glasgow", "country": "United Kingdom", "location": {"latitude": 55.864237, "longitude": -4.251805999999988}, "city_code": "GLAS-sky", "population": 606340}, "took": 1.72348}, {"url": "http://localhost:8080/uber", "status_code": 200, "call_id": 54, "payload": {"city_name": "Sheffield", "country": "United Kingdom", "location": {"latitude": 53.38112899999999, "longitude": -1.47008500000004}, "city_code": "DONC-sky", "population": 569737}, "took": 1.671263}, {"url": "http://localhost:8080/uber", "status_code": 200, "call_id": 55, "payload": {"city_name": "Bradford", "country": "United Kingdom", "location": {"latitude": 53.795984, "longitude": -1.7593980000000329}, "city_code": "BFDA-sky", "population": 531176}, "took": 2.121609}, {"url": "http://localhost:8080/uber", "status_code": 200, "call_id": 56, "payload": {"city_name": "Manchester", "country": "United Kingdom", "location": {"latitude": 53.4807593, "longitude": -2.2426305000000184}, "city_code": "MANC-sky", "population": 530292}, "took": 2.533425}, {"url": "http://localhost:8080/uber", "status_code": 200, "call_id": 57, "payload": {"city_name": "Edinburgh", "country": "United Kingdom", "location": {"latitude": 55.953252, "longitude": -3.188266999999996}, "city_code": "EDIN-sky", "population": 498810}, "took": 1.735817}, {"url": "http://localhost:8080/uber", "status_code": 200, "call_id": 58, "payload": {"city_name": "Liverpool", "country": "United Kingdom", "location": {"latitude": 53.4083714, "longitude": -2.9915726000000404}, "city_code": "LIVE-sky", "population": 478580}, "took": 1.600611}, {"url": "http://localhost:8080/uber", "status_code": 200, "call_id": 59, "payload": {"city_name": "Bristol", "country": "United Kingdom", "location": {"latitude": 51.454513, "longitude": -2.5879099999999653}, "city_code": "BRIS-sky", "population": 449328}, "took": 1.560339}, {"url": "http://localhost:8080/uber", "status_code": 200, "call_id": 60, "payload": {"city_name": "Madrid", "country": "Spain", "location": {"latitude": 40.4167754, "longitude": -3.7037901999999576}, "city_code": "MADR-sky", "population": 3141991}, "took": 1.951465}, {"url": "http://localhost:8080/uber", "status_code": 200, "call_id": 61, "payload": {"city_name": "Barcelona", "country": "Spain", "location": {"latitude": 41.38506389999999, "longitude": 2.1734034999999494}, "city_code": "BARC-sky", "population": 1608746}, "took": 1.157806}, {"url": "http://localhost:8080/uber", "status_code": 200, "call_id": 62, "payload": {"city_name": "Valencia", "country": "Spain", "location": {"latitude": 39.4699075, "longitude": -0.3762881000000107}, "city_code": "VALE-sky", "population": 786189}, "took": 1.20059}, {"url": "http://localhost:8080/uber", "status_code": 200, "call_id": 63, "payload": {"city_name": "Seville", "country": "Spain", "location": {"latitude": 37.3890924, "longitude": -5.984458899999936}, "city_code": "SEVI-sky", "population": 693878}, "took": 1.146947}, {"url": "http://localhost:8080/instagram", "status_code": 200, "call_id": 64, "payload": {"city_name": "Berlin", "country": "Germany", "location": {"latitude": 52.52000659999999, "longitude": 13.404953999999975}, "city_code": "BERL-sky", "population": 3671000}, "took": 2.18807}, {"url": "http://localhost:8080/instagram", "status_code": 200, "call_id": 65, "payload": {"city_name": "Hamburg", "country": "Germany", "location": {"latitude": 53.5510846, "longitude": 9.99368179999999}, "city_code": "HAMB-sky", "population": 1686100}, "took": 2.15457}, {"url": "http://localhost:8080/instagram", "status_code": 200, "call_id": 66, "payload": {"city_name": "Munich", "country": "Germany", "location": {"latitude": 48.1351253, "longitude": 11.581980599999952}, "city_code": "MUNI-sky", "population": 1185400}, "took": 1.604473}, {"url": "http://localhost:8080/instagram", "status_code": 200, "call_id": 67, "payload": {"city_name": "Cologne", "country": "Germany", "location": {"latitude": 50.937531, "longitude": 6.960278600000038}, "city_code": "COLO-sky", "population": 1060582}, "took": 1.921142}, {"url": "http://localhost:8080/instagram", "status_code": 200, "call_id": 68, "payload": {"city_name": "Frankfurt", "country": "Germany", "location": {"latitude": 50.11092209999999, "longitude": 8.682126700000026}, "city_code": "FRAN-sky", "population": 720000}, "took": 2.737148}, {"url": "http://localhost:8080/instagram", "status_code": 200, "call_id": 69, "payload": {"city_name": "Dortmund", "country": "Germany", "location": {"latitude": 51.5135872, "longitude": 7.465298100000041}, "city_code": "DORT-sky", "population": 587600}, "took": 2.682857}, {"url": "http://localhost:8080/instagram", "status_code": 200, "call_id": 70, "payload": {"city_name": "Stuttgart", "country": "Germany", "location": {"latitude": 48.7758459, "longitude": 9.182932100000016}, "city_code": "STUT-sky", "population": 581100}, "took": 2.161993}, {"url": "http://localhost:8080/instagram", "status_code": 200, "call_id": 71, "payload": {"city_name": "Dusseldorf", "country": "Germany", "location": {"latitude": 51.2277411, "longitude": 6.773455600000034}, "city_code": "DUSS-sky", "population": 568900}, "took": 2.625437}, {"url": "http://localhost:8080/instagram", "status_code": 200, "call_id": 72, "payload": {"city_name": "Bremen", "country": "Germany", "location": {"latitude": 53.07929619999999, "longitude": 8.801693699999987}, "city_code": "BREM-sky", "population": 527900}, "took": 3.257288}, {"url": "http://localhost:8080/instagram", "status_code": 200, "call_id": 73, "payload": {"city_name": "Hanover", "country": "Germany", "location": {"latitude": 52.3758916, "longitude": 9.732010400000036}, "city_code": "HANN-sky", "population": 516300}, "took": 2.752983}, {"url": "http://localhost:8080/instagram", "status_code": 200, "call_id": 74, "payload": {"city_name": "Nuremberg", "country": "Germany", "location": {"latitude": 49.4254092, "longitude": 49.4254092}, "city_code": "NURE-sky", "population": 486700}, "took": 3.400531}, {"url": "http://localhost:8080/instagram", "status_code": 200, "call_id": 75, "payload": {"city_name": "Leipzig", "country": "Germany", "location": {"latitude": 51.3396955, "longitude": 12.373074699999961}, "city_code": "LEIP-sky", "population": 486100}, "took": 1.590748}, {"url": "http://localhost:8080/instagram", "status_code": 200, "call_id": 76, "payload": {"city_name": "Dresden", "country": "Germany", "location": {"latitude": 51.05040880000001, "longitude": 13.737262099999953}, "city_code": "DRES-sky", "population": 473300}, "took": 1.620905}, {"url": "http://localhost:8080/instagram", "status_code": 200, "call_id": 77, "payload": {"city_name": "London", "country": "United Kingdom", "location": {"latitude": 51.5073509, "longitude": -0.12775829999998223}, "city_code": "LOND-sky", "population": 8673713}, "took": 2.581457}, {"url": "http://localhost:8080/instagram", "status_code": 200, "call_id": 78, "payload": {"city_name": "Birmingham", "country": "United Kingdom", "location": {"latitude": 52.48624299999999, "longitude": -1.8904009999999971}, "city_code": "BIRM-sky", "population": 1111307}, "took": 2.098054}, {"url": "http://localhost:8080/instagram", "status_code": 200, "call_id": 79, "payload": {"city_name": "Leeds", "country": "United Kingdom", "location": {"latitude": 53.8007554, "longitude": -1.5490773999999874}, "city_code": "LEED-sky", "population": 774060}, "took": 2.813095}, {"url": "http://localhost:8080/instagram", "status_code": 200, "call_id": 80, "payload": {"city_name": "Glasgow", "country": "United Kingdom", "location": {"latitude": 55.864237, "longitude": -4.251805999999988}, "city_code": "GLAS-sky", "population": 606340}, "took": 0.557905}, {"url": "http://localhost:8080/instagram", "status_code": 200, "call_id": 81, "payload": {"city_name": "Sheffield", "country": "United Kingdom", "location": {"latitude": 53.38112899999999, "longitude": -1.47008500000004}, "city_code": "DONC-sky", "population": 569737}, "took": 3.132627}, {"url": "http://localhost:8080/instagram", "status_code": 200, "call_id": 82, "payload": {"city_name": "Bradford", "country": "United Kingdom", "location": {"latitude": 53.795984, "longitude": -1.7593980000000329}, "city_code": "BFDA-sky", "population": 531176}, "took": 2.614125}, {"url": "http://localhost:8080/instagram", "status_code": 200, "call_id": 83, "payload": {"city_name": "Manchester", "country": "United Kingdom", "location": {"latitude": 53.4807593, "longitude": -2.2426305000000184}, "city_code": "MANC-sky", "population": 530292}, "took": 3.892743}, {"url": "http://localhost:8080/instagram", "status_code": 200, "call_id": 84, "payload": {"city_name": "Edinburgh", "country": "United Kingdom", "location": {"latitude": 55.953252, "longitude": -3.188266999999996}, "city_code": "EDIN-sky", "population": 498810}, "took": 1.041597}, {"url": "http://localhost:8080/instagram", "status_code": 200, "call_id": 85, "payload": {"city_name": "Liverpool", "country": "United Kingdom", "location": {"latitude": 53.4083714, "longitude": -2.9915726000000404}, "city_code": "LIVE-sky", "population": 478580}, "took": 2.068834}, {"url": "http://localhost:8080/instagram", "status_code": 200, "call_id": 86, "payload": {"city_name": "Bristol", "country": "United Kingdom", "location": {"latitude": 51.454513, "longitude": -2.5879099999999653}, "city_code": "BRIS-sky", "population": 449328}, "took": 2.079726}, {"url": "http://localhost:8080/instagram", "status_code": 200, "call_id": 87, "payload": {"city_name": "Madrid", "country": "Spain", "location": {"latitude": 40.4167754, "longitude": -3.7037901999999576}, "city_code": "MADR-sky", "population": 3141991}, "took": 2.165166}, {"url": "http://localhost:8080/instagram", "status_code": 200, "call_id": 88, "payload": {"city_name": "Barcelona", "country": "Spain", "location": {"latitude": 41.38506389999999, "longitude": 2.1734034999999494}, "city_code": "BARC-sky", "population": 1608746}, "took": 1.045591}, {"url": "http://localhost:8080/instagram", "status_code": 200, "call_id": 89, "payload": {"city_name": "Valencia", "country": "Spain", "location": {"latitude": 39.4699075, "longitude": -0.3762881000000107}, "city_code": "VALE-sky", "population": 786189}, "took": 3.089991}, {"url": "http://localhost:8080/instagram", "status_code": 200, "call_id": 90, "payload": {"city_name": "Seville", "country": "Spain", "location": {"latitude": 37.3890924, "longitude": -5.984458899999936}, "city_code": "SEVI-sky", "population": 693878}, "took": 1.058207}, {"url": "http://localhost:8080/instagram", "status_code": 200, "call_id": 91, "payload": {"city_name": "Zaragoza", "country": "Spain", "location": {"latitude": 41.64882259999999, "longitude": -0.8890853000000334}, "city_code": "ZARA-sky", "population": 664953}, "took": 1.585416}, {"url": "http://localhost:8080/instagram", "status_code": 200, "call_id": 92, "payload": {"city_name": "Malaga", "country": "Spain", "location": {"latitude": 36.721261, "longitude": -4.421265500000004}, "city_code": "MALA-sky", "population": 569130}, "took": 1.040265}, {"url": "http://localhost:8080/instagram", "status_code": 200, "call_id": 93, "payload": {"city_name": "Murcia", "country": "Spain", "location": {"latitude": 37.99223990000001, "longitude": -1.1306544000000258}, "city_code": "MURC-sky", "population": 439889}, "took": 2.602115}, {"url": "http://localhost:8080/instagram", "status_code": 200, "call_id": 94, "payload": {"city_name": "Palma de Mallorca", "country": "Spain", "location": {"latitude": 39.5696005, "longitude": 2.6501603000000387}, "city_code": "PALM-sky", "population": 400578}, "took": 1.070158}, {"url": "http://localhost:8080/instagram", "status_code": 200, "call_id": 95, "payload": {"city_name": "Rome", "country": "Italy", "location": {"latitude": 41.90278349999999, "longitude": 12.496365500000024}, "city_code": "ROME-sky", "population": 2870336}, "took": 1.082711}, {"url": "http://localhost:8080/instagram", "status_code": 200, "call_id": 96, "payload": {"city_name": "Milan", "country": "Italy", "location": {"latitude": 45.4654219, "longitude": 9.18592430000001}, "city_code": "MILA-sky", "population": 1368590}, "took": 1.589966}, {"url": "http://localhost:8080/instagram", "status_code": 200, "call_id": 97, "payload": {"city_name": "Naples", "country": "Italy", "location": {"latitude": 40.8517746, "longitude": 14.268124400000033}, "city_code": "NAPL-sky", "population": 972638}, "took": 2.076013}, {"url": "http://localhost:8080/instagram", "status_code": 200, "call_id": 98, "payload": {"city_name": "Turin", "country": "Italy", "location": {"latitude": 45.063299, "longitude": 7.669288999999935}, "city_code": "TURI-sky", "population": 892649}, "took": 2.103885}, {"url": "http://localhost:8080/instagram", "status_code": 200, "call_id": 99, "payload": {"city_name": "Palermo", "country": "Italy", "location": {"latitude": 38.1156209, "longitude": 13.361318299999994}, "city_code": "PALE-sky", "population": 673073}, "took": 3.257272}, {"url": "http://localhost:8080/instagram", "status_code": 200, "call_id": 100, "payload": {"city_name": "Paris", "country": "France", "location": {"latitude": 48.85661400000001, "longitude": 2.3522219000000177}, "city_code": "PARI-sky", "population": 2244000}, "took": 1.56098}, {"url": "http://localhost:8080/instagram", "status_code": 200, "call_id": 101, "payload": {"city_name": "Berlin", "country": "Germany", "location": {"latitude": 52.52000659999999, "longitude": 13.404953999999975}, "city_code": "BERL-sky", "population": 3671000}, "took": 2.581765}, {"url": "http://localhost:8080/instagram", "status_code": 200, "call_id": 102, "payload": {"city_name": "Hamburg", "country": "Germany", "location": {"latitude": 53.5510846, "longitude": 9.99368179999999}, "city_code": "HAMB-sky", "population": 1686100}, "took": 2.111384}, {"url": "http://localhost:8080/instagram", "status_code": 200, "call_id": 103, "payload": {"city_name": "Munich", "country": "Germany", "location": {"latitude": 48.1351253, "longitude": 11.581980599999952}, "city_code": "MUNI-sky", "population": 1185400}, "took": 2.162536}, {"url": "http://localhost:8080/instagram", "status_code": 200, "call_id": 104, "payload": {"city_name": "Cologne", "country": "Germany", "location": {"latitude": 50.937531, "longitude": 6.960278600000038}, "city_code": "COLO-sky", "population": 1060582}, "took": 1.563079}, {"url": "http://localhost:8080/instagram", "status_code": 200, "call_id": 105, "payload": {"city_name": "Frankfurt", "country": "Germany", "location": {"latitude": 50.11092209999999, "longitude": 8.682126700000026}, "city_code": "FRAN-sky", "population": 720000}, "took": 3.665614}, {"url": "http://localhost:8080/instagram", "status_code": 200, "call_id": 106, "payload": {"city_name": "Dortmund", "country": "Germany", "location": {"latitude": 51.5135872, "longitude": 7.465298100000041}, "city_code": "DORT-sky", "population": 587600}, "took": 2.949288}, {"url": "http://localhost:8080/instagram", "status_code": 200, "call_id": 107, "payload": {"city_name": "Stuttgart", "country": "Germany", "location": {"latitude": 48.7758459, "longitude": 9.182932100000016}, "city_code": "STUT-sky", "population": 581100}, "took": 2.192153}, {"url": "http://localhost:8080/instagram", "status_code": 200, "call_id": 108, "payload": {"city_name": "Dusseldorf", "country": "Germany", "location": {"latitude": 51.2277411, "longitude": 6.773455600000034}, "city_code": "DUSS-sky", "population": 568900}, "took": 1.643796}, {"url": "http://localhost:8080/instagram", "status_code": 200, "call_id": 109, "payload": {"city_name": "Bremen", "country": "Germany", "location": {"latitude": 53.07929619999999, "longitude": 8.801693699999987}, "city_code": "BREM-sky", "population": 527900}, "took": 2.689271}, {"url": "http://localhost:8080/instagram", "status_code": 200, "call_id": 110, "payload": {"city_name": "Hanover", "country": "Germany", "location": {"latitude": 52.3758916, "longitude": 9.732010400000036}, "city_code": "HANN-sky", "population": 516300}, "took": 2.387885}, {"url": "http://localhost:8080/instagram", "status_code": 200, "call_id": 111, "payload": {"city_name": "Nuremberg", "country": "Germany", "location": {"latitude": 49.4254092, "longitude": 49.4254092}, "city_code": "NURE-sky", "population": 486700}, "took": 2.6572}, {"url": "http://localhost:8080/instagram", "status_code": 200, "call_id": 112, "payload": {"city_name": "Leipzig", "country": "Germany", "location": {"latitude": 51.3396955, "longitude": 12.373074699999961}, "city_code": "LEIP-sky", "population": 486100}, "took": 1.625585}, {"url": "http://localhost:8080/instagram", "status_code": 200, "call_id": 113, "payload": {"city_name": "Dresden", "country": "Germany", "location": {"latitude": 51.05040880000001, "longitude": 13.737262099999953}, "city_code": "DRES-sky", "population": 473300}, "took": 1.630598}, {"url": "http://localhost:8080/instagram", "status_code": 200, "call_id": 114, "payload": {"city_name": "London", "country": "United Kingdom", "location": {"latitude": 51.5073509, "longitude": -0.12775829999998223}, "city_code": "LOND-sky", "population": 8673713}, "took": 2.908755}, {"url": "http://localhost:8080/instagram", "status_code": 200, "call_id": 115, "payload": {"city_name": "Birmingham", "country": "United Kingdom", "location": {"latitude": 52.48624299999999, "longitude": -1.8904009999999971}, "city_code": "BIRM-sky", "population": 1111307}, "took": 5.845375}, {"url": "http://localhost:8080/instagram", "status_code": 200, "call_id": 116, "payload": {"city_name": "Leeds", "country": "United Kingdom", "location": {"latitude": 53.8007554, "longitude": -1.5490773999999874}, "city_code": "LEED-sky", "population": 774060}, "took": 1.568245}, {"url": "http://localhost:8080/instagram", "status_code": 200, "call_id": 117, "payload": {"city_name": "Glasgow", "country": "United Kingdom", "location": {"latitude": 55.864237, "longitude": -4.251805999999988}, "city_code": "GLAS-sky", "population": 606340}, "took": 1.083305}, {"url": "http://localhost:8080/instagram", "status_code": 200, "call_id": 118, "payload": {"city_name": "Sheffield", "country": "United Kingdom", "location": {"latitude": 53.38112899999999, "longitude": -1.47008500000004}, "city_code": "DONC-sky", "population": 569737}, "took": 4.933976}, {"url": "http://localhost:8080/instagram", "status_code": 200, "call_id": 119, "payload": {"city_name": "Bradford", "country": "United Kingdom", "location": {"latitude": 53.795984, "longitude": -1.7593980000000329}, "city_code": "BFDA-sky", "population": 531176}, "took": 3.268144}, {"url": "http://localhost:8080/instagram", "status_code": 200, "call_id": 120, "payload": {"city_name": "Manchester", "country": "United Kingdom", "location": {"latitude": 53.4807593, "longitude": -2.2426305000000184}, "city_code": "MANC-sky", "population": 530292}, "took": 2.62044}, {"url": "http://localhost:8080/instagram", "status_code": 200, "call_id": 121, "payload": {"city_name": "Edinburgh", "country": "United Kingdom", "location": {"latitude": 55.953252, "longitude": -3.188266999999996}, "city_code": "EDIN-sky", "population": 498810}, "took": 1.09508}, {"url": "http://localhost:8080/instagram", "status_code": 200, "call_id": 122, "payload": {"city_name": "Liverpool", "country": "United Kingdom", "location": {"latitude": 53.4083714, "longitude": -2.9915726000000404}, "city_code": "LIVE-sky", "population": 478580}, "took": 2.831332}, {"url": "http://localhost:8080/instagram", "status_code": 200, "call_id": 123, "payload": {"city_name": "Bristol", "country": "United Kingdom", "location": {"latitude": 51.454513, "longitude": -2.5879099999999653}, "city_code": "BRIS-sky", "population": 449328}, "took": 2.193517}, {"url": "http://localhost:8080/instagram", "status_code": 200, "call_id": 124, "payload": {"city_name": "Madrid", "country": "Spain", "location": {"latitude": 40.4167754, "longitude": -3.7037901999999576}, "city_code": "MADR-sky", "population": 3141991}, "took": 1.564233}, {"url": "http://localhost:8080/instagram", "status_code": 200, "call_id": 125, "payload": {"city_name": "Barcelona", "country": "Spain", "location": {"latitude": 41.38506389999999, "longitude": 2.1734034999999494}, "city_code": "BARC-sky", "population": 1608746}, "took": 2.103044}, {"url": "http://localhost:8080/instagram", "status_code": 200, "call_id": 126, "payload": {"city_name": "Valencia", "country": "Spain", "location": {"latitude": 39.4699075, "longitude": -0.3762881000000107}, "city_code": "VALE-sky", "population": 786189}, "took": 3.224609}, {"url": "http://localhost:8080/instagram", "status_code": 200, "call_id": 127, "payload": {"city_name": "Seville", "country": "Spain", "location": {"latitude": 37.3890924, "longitude": -5.984458899999936}, "city_code": "SEVI-sky", "population": 693878}, "took": 1.099815}, {"url": "http://localhost:8080/weather", "status_code": 200, "call_id": 128, "payload": {"city_name": "Berlin", "country": "Germany", "location": {"latitude": 52.52000659999999, "longitude": 13.404953999999975}, "city_code": "BERL-sky", "population": 3671000}, "took": 0.636398}, {"url": "http://localhost:8080/weather", "status_code": 200, "call_id": 129, "payload": {"city_name": "Hamburg", "country": "Germany", "location": {"latitude": 53.5510846, "longitude": 9.99368179999999}, "city_code": "HAMB-sky", "population": 1686100}, "took": 0.631297}, {"url": "http://localhost:8080/weather", "status_code": 200, "call_id": 130, "payload": {"city_name": "Munich", "country": "Germany", "location": {"latitude": 48.1351253, "longitude": 11.581980599999952}, "city_code": "MUNI-sky", "population": 1185400}, "took": 0.596274}, {"url": "http://localhost:8080/weather", "status_code": 200, "call_id": 131, "payload": {"city_name": "Cologne", "country": "Germany", "location": {"latitude": 50.937531, "longitude": 6.960278600000038}, "city_code": "COLO-sky", "population": 1060582}, "took": 1.078254}, {"url": "http://localhost:8080/weather", "status_code": 200, "call_id": 132, "payload": {"city_name": "Frankfurt", "country": "Germany", "location": {"latitude": 50.11092209999999, "longitude": 8.682126700000026}, "city_code": "FRAN-sky", "population": 720000}, "took": 0.59291}, {"url": "http://localhost:8080/weather", "status_code": 200, "call_id": 133, "payload": {"city_name": "Dortmund", "country": "Germany", "location": {"latitude": 51.5135872, "longitude": 7.465298100000041}, "city_code": "DORT-sky", "population": 587600}, "took": 1.136995}, {"url": "http://localhost:8080/weather", "status_code": 200, "call_id": 134, "payload": {"city_name": "Stuttgart", "country": "Germany", "location": {"latitude": 48.7758459, "longitude": 9.182932100000016}, "city_code": "STUT-sky", "population": 581100}, "took": 0.575618}, {"url": "http://localhost:8080/weather", "status_code": 200, "call_id": 135, "payload": {"city_name": "Dusseldorf", "country": "Germany", "location": {"latitude": 51.2277411, "longitude": 6.773455600000034}, "city_code": "DUSS-sky", "population": 568900}, "took": 1.624064}, {"url": "http://localhost:8080/weather", "status_code": 200, "call_id": 136, "payload": {"city_name": "Bremen", "country": "Germany", "location": {"latitude": 53.07929619999999, "longitude": 8.801693699999987}, "city_code": "BREM-sky", "population": 527900}, "took": 1.180206}, {"url": "http://localhost:8080/weather", "status_code": 200, "call_id": 137, "payload": {"city_name": "Hanover", "country": "Germany", "location": {"latitude": 52.3758916, "longitude": 9.732010400000036}, "city_code": "HANN-sky", "population": 516300}, "took": 0.566743}, {"url": "http://localhost:8080/weather", "status_code": 200, "call_id": 138, "payload": {"city_name": "Nuremberg", "country": "Germany", "location": {"latitude": 49.4254092, "longitude": 49.4254092}, "city_code": "NURE-sky", "population": 486700}, "took": 0.633065}, {"url": "http://localhost:8080/weather", "status_code": 200, "call_id": 139, "payload": {"city_name": "Leipzig", "country": "Germany", "location": {"latitude": 51.3396955, "longitude": 12.373074699999961}, "city_code": "LEIP-sky", "population": 486100}, "took": 0.603623}, {"url": "http://localhost:8080/weather", "status_code": 200, "call_id": 140, "payload": {"city_name": "Dresden", "country": "Germany", "location": {"latitude": 51.05040880000001, "longitude": 13.737262099999953}, "city_code": "DRES-sky", "population": 473300}, "took": 1.686439}, {"url": "http://localhost:8080/weather", "status_code": 200, "call_id": 141, "payload": {"city_name": "London", "country": "United Kingdom", "location": {"latitude": 51.5073509, "longitude": -0.12775829999998223}, "city_code": "LOND-sky", "population": 8673713}, "took": 0.608481}, {"url": "http://localhost:8080/weather", "status_code": 200, "call_id": 142, "payload": {"city_name": "Birmingham", "country": "United Kingdom", "location": {"latitude": 52.48624299999999, "longitude": -1.8904009999999971}, "city_code": "BIRM-sky", "population": 1111307}, "took": 1.204988}, {"url": "http://localhost:8080/weather", "status_code": 200, "call_id": 143, "payload": {"city_name": "Leeds", "country": "United Kingdom", "location": {"latitude": 53.8007554, "longitude": -1.5490773999999874}, "city_code": "LEED-sky", "population": 774060}, "took": 0.542635}, {"url": "http://localhost:8080/weather", "status_code": 200, "call_id": 144, "payload": {"city_name": "Glasgow", "country": "United Kingdom", "location": {"latitude": 55.864237, "longitude": -4.251805999999988}, "city_code": "GLAS-sky", "population": 606340}, "took": 0.635008}, {"url": "http://localhost:8080/weather", "status_code": 200, "call_id": 145, "payload": {"city_name": "Sheffield", "country": "United Kingdom", "location": {"latitude": 53.38112899999999, "longitude": -1.47008500000004}, "city_code": "DONC-sky", "population": 569737}, "took": 0.647122}, {"url": "http://localhost:8080/weather", "status_code": 200, "call_id": 146, "payload": {"city_name": "Bradford", "country": "United Kingdom", "location": {"latitude": 53.795984, "longitude": -1.7593980000000329}, "city_code": "BFDA-sky", "population": 531176}, "took": 1.10974}, {"url": "http://localhost:8080/weather", "status_code": 200, "call_id": 147, "payload": {"city_name": "Manchester", "country": "United Kingdom", "location": {"latitude": 53.4807593, "longitude": -2.2426305000000184}, "city_code": "MANC-sky", "population": 530292}, "took": 1.069921}, {"url": "http://localhost:8080/weather", "status_code": 200, "call_id": 148, "payload": {"city_name": "Edinburgh", "country": "United Kingdom", "location": {"latitude": 55.953252, "longitude": -3.188266999999996}, "city_code": "EDIN-sky", "population": 498810}, "took": 0.610849}, {"url": "http://localhost:8080/weather", "status_code": 200, "call_id": 149, "payload": {"city_name": "Liverpool", "country": "United Kingdom", "location": {"latitude": 53.4083714, "longitude": -2.9915726000000404}, "city_code": "LIVE-sky", "population": 478580}, "took": 0.635381}, {"url": "http://localhost:8080/weather", "status_code": 200, "call_id": 150, "payload": {"city_name": "Bristol", "country": "United Kingdom", "location": {"latitude": 51.454513, "longitude": -2.5879099999999653}, "city_code": "BRIS-sky", "population": 449328}, "took": 1.063628}, {"url": "http://localhost:8080/weather", "status_code": 200, "call_id": 151, "payload": {"city_name": "Madrid", "country": "Spain", "location": {"latitude": 40.4167754, "longitude": -3.7037901999999576}, "city_code": "MADR-sky", "population": 3141991}, "took": 0.55804}, {"url": "http://localhost:8080/weather", "status_code": 200, "call_id": 152, "payload": {"city_name": "Barcelona", "country": "Spain", "location": {"latitude": 41.38506389999999, "longitude": 2.1734034999999494}, "city_code": "BARC-sky", "population": 1608746}, "took": 0.614076}, {"url": "http://localhost:8080/weather", "status_code": 200, "call_id": 153, "payload": {"city_name": "Valencia", "country": "Spain", "location": {"latitude": 39.4699075, "longitude": -0.3762881000000107}, "city_code": "VALE-sky", "population": 786189}, "took": 0.6403}, {"url": "http://localhost:8080/weather", "status_code": 200, "call_id": 154, "payload": {"city_name": "Seville", "country": "Spain", "location": {"latitude": 37.3890924, "longitude": -5.984458899999936}, "city_code": "SEVI-sky", "population": 693878}, "took": 1.094382}, {"url": "http://localhost:8080/weather", "status_code": 200, "call_id": 155, "payload": {"city_name": "Zaragoza", "country": "Spain", "location": {"latitude": 41.64882259999999, "longitude": -0.8890853000000334}, "city_code": "ZARA-sky", "population": 664953}, "took": 1.082043}, {"url": "http://localhost:8080/weather", "status_code": 200, "call_id": 156, "payload": {"city_name": "Malaga", "country": "Spain", "location": {"latitude": 36.721261, "longitude": -4.421265500000004}, "city_code": "MALA-sky", "population": 569130}, "took": 0.593263}, {"url": "http://localhost:8080/weather", "status_code": 200, "call_id": 157, "payload": {"city_name": "Murcia", "country": "Spain", "location": {"latitude": 37.99223990000001, "longitude": -1.1306544000000258}, "city_code": "MURC-sky", "population": 439889}, "took": 0.578978}, {"url": "http://localhost:8080/weather", "status_code": 200, "call_id": 158, "payload": {"city_name": "Palma de Mallorca", "country": "Spain", "location": {"latitude": 39.5696005, "longitude": 2.6501603000000387}, "city_code": "PALM-sky", "population": 400578}, "took": 1.081288}, {"url": "http://localhost:8080/weather", "status_code": 200, "call_id": 159, "payload": {"city_name": "Rome", "country": "Italy", "location": {"latitude": 41.90278349999999, "longitude": 12.496365500000024}, "city_code": "ROME-sky", "population": 2870336}, "took": 1.122936}, {"url": "http://localhost:8080/weather", "status_code": 200, "call_id": 160, "payload": {"city_name": "Milan", "country": "Italy", "location": {"latitude": 45.4654219, "longitude": 9.18592430000001}, "city_code": "MILA-sky", "population": 1368590}, "took": 0.616857}, {"url": "http://localhost:8080/weather", "status_code": 200, "call_id": 161, "payload": {"city_name": "Naples", "country": "Italy", "location": {"latitude": 40.8517746, "longitude": 14.268124400000033}, "city_code": "NAPL-sky", "population": 972638}, "took": 1.141701}, {"url": "http://localhost:8080/weather", "status_code": 200, "call_id": 162, "payload": {"city_name": "Turin", "country": "Italy", "location": {"latitude": 45.063299, "longitude": 7.669288999999935}, "city_code": "TURI-sky", "population": 892649}, "took": 0.561639}, {"url": "http://localhost:8080/weather", "status_code": 200, "call_id": 163, "payload": {"city_name": "Palermo", "country": "Italy", "location": {"latitude": 38.1156209, "longitude": 13.361318299999994}, "city_code": "PALE-sky", "population": 673073}, "took": 1.071129}, {"url": "http://localhost:8080/weather", "status_code": 200, "call_id": 164, "payload": {"city_name": "Paris", "country": "France", "location": {"latitude": 48.85661400000001, "longitude": 2.3522219000000177}, "city_code": "PARI-sky", "population": 2244000}, "took": 0.571564}, {"url": "http://localhost:8080/weather", "status_code": 200, "call_id": 165, "payload": {"city_name": "Berlin", "country": "Germany", "location": {"latitude": 52.52000659999999, "longitude": 13.404953999999975}, "city_code": "BERL-sky", "population": 3671000}, "took": 0.571692}, {"url": "http://localhost:8080/weather", "status_code": 200, "call_id": 166, "payload": {"city_name": "Hamburg", "country": "Germany", "location": {"latitude": 53.5510846, "longitude": 9.99368179999999}, "city_code": "HAMB-sky", "population": 1686100}, "took": 0.601996}, {"url": "http://localhost:8080/weather", "status_code": 200, "call_id": 167, "payload": {"city_name": "Munich", "country": "Germany", "location": {"latitude": 48.1351253, "longitude": 11.581980599999952}, "city_code": "MUNI-sky", "population": 1185400}, "took": 1.098024}, {"url": "http://localhost:8080/weather", "status_code": 200, "call_id": 168, "payload": {"city_name": "Cologne", "country": "Germany", "location": {"latitude": 50.937531, "longitude": 6.960278600000038}, "city_code": "COLO-sky", "population": 1060582}, "took": 0.562945}, {"url": "http://localhost:8080/weather", "status_code": 200, "call_id": 169, "payload": {"city_name": "Frankfurt", "country": "Germany", "location": {"latitude": 50.11092209999999, "longitude": 8.682126700000026}, "city_code": "FRAN-sky", "population": 720000}, "took": 1.05971}, {"url": "http://localhost:8080/weather", "status_code": 200, "call_id": 170, "payload": {"city_name": "Dortmund", "country": "Germany", "location": {"latitude": 51.5135872, "longitude": 7.465298100000041}, "city_code": "DORT-sky", "population": 587600}, "took": 0.578018}, {"url": "http://localhost:8080/weather", "status_code": 200, "call_id": 171, "payload": {"city_name": "Stuttgart", "country": "Germany", "location": {"latitude": 48.7758459, "longitude": 9.182932100000016}, "city_code": "STUT-sky", "population": 581100}, "took": 0.563182}, {"url": "http://localhost:8080/weather", "status_code": 200, "call_id": 172, "payload": {"city_name": "Dusseldorf", "country": "Germany", "location": {"latitude": 51.2277411, "longitude": 6.773455600000034}, "city_code": "DUSS-sky", "population": 568900}, "took": 0.60943}, {"url": "http://localhost:8080/weather", "status_code": 200, "call_id": 173, "payload": {"city_name": "Bremen", "country": "Germany", "location": {"latitude": 53.07929619999999, "longitude": 8.801693699999987}, "city_code": "BREM-sky", "population": 527900}, "took": 1.063424}, {"url": "http://localhost:8080/weather", "status_code": 200, "call_id": 174, "payload": {"city_name": "Hanover", "country": "Germany", "location": {"latitude": 52.3758916, "longitude": 9.732010400000036}, "city_code": "HANN-sky", "population": 516300}, "took": 1.105609}, {"url": "http://localhost:8080/weather", "status_code": 200, "call_id": 175, "payload": {"city_name": "Nuremberg", "country": "Germany", "location": {"latitude": 49.4254092, "longitude": 49.4254092}, "city_code": "NURE-sky", "population": 486700}, "took": 0.634628}, {"url": "http://localhost:8080/weather", "status_code": 200, "call_id": 176, "payload": {"city_name": "Leipzig", "country": "Germany", "location": {"latitude": 51.3396955, "longitude": 12.373074699999961}, "city_code": "LEIP-sky", "population": 486100}, "took": 0.640571}, {"url": "http://localhost:8080/weather", "status_code": 200, "call_id": 177, "payload": {"city_name": "Dresden", "country": "Germany", "location": {"latitude": 51.05040880000001, "longitude": 13.737262099999953}, "city_code": "DRES-sky", "population": 473300}, "took": 1.06903}, {"url": "http://localhost:8080/weather", "status_code": 200, "call_id": 178, "payload": {"city_name": "London", "country": "United Kingdom", "location": {"latitude": 51.5073509, "longitude": -0.12775829999998223}, "city_code": "LOND-sky", "population": 8673713}, "took": 1.085028}, {"url": "http://localhost:8080/weather", "status_code": 200, "call_id": 179, "payload": {"city_name": "Birmingham", "country": "United Kingdom", "location": {"latitude": 52.48624299999999, "longitude": -1.8904009999999971}, "city_code": "BIRM-sky", "population": 1111307}, "took": 0.598555}, {"url": "http://localhost:8080/weather", "status_code": 200, "call_id": 180, "payload": {"city_name": "Leeds", "country": "United Kingdom", "location": {"latitude": 53.8007554, "longitude": -1.5490773999999874}, "city_code": "LEED-sky", "population": 774060}, "took": 1.126463}, {"url": "http://localhost:8080/weather", "status_code": 200, "call_id": 181, "payload": {"city_name": "Glasgow", "country": "United Kingdom", "location": {"latitude": 55.864237, "longitude": -4.251805999999988}, "city_code": "GLAS-sky", "population": 606340}, "took": 0.545143}, {"url": "http://localhost:8080/weather", "status_code": 200, "call_id": 182, "payload": {"city_name": "Sheffield", "country": "United Kingdom", "location": {"latitude": 53.38112899999999, "longitude": -1.47008500000004}, "city_code": "DONC-sky", "population": 569737}, "took": 0.571489}, {"url": "http://localhost:8080/weather", "status_code": 200, "call_id": 183, "payload": {"city_name": "Bradford", "country": "United Kingdom", "location": {"latitude": 53.795984, "longitude": -1.7593980000000329}, "city_code": "BFDA-sky", "population": 531176}, "took": 0.563443}, {"url": "http://localhost:8080/weather", "status_code": 200, "call_id": 184, "payload": {"city_name": "Manchester", "country": "United Kingdom", "location": {"latitude": 53.4807593, "longitude": -2.2426305000000184}, "city_code": "MANC-sky", "population": 530292}, "took": 1.127837}, {"url": "http://localhost:8080/weather", "status_code": 200, "call_id": 185, "payload": {"city_name": "Edinburgh", "country": "United Kingdom", "location": {"latitude": 55.953252, "longitude": -3.188266999999996}, "city_code": "EDIN-sky", "population": 498810}, "took": 0.604135}, {"url": "http://localhost:8080/weather", "status_code": 200, "call_id": 186, "payload": {"city_name": "Liverpool", "country": "United Kingdom", "location": {"latitude": 53.4083714, "longitude": -2.9915726000000404}, "city_code": "LIVE-sky", "population": 478580}, "took": 1.06488}, {"url": "http://localhost:8080/weather", "status_code": 200, "call_id": 187, "payload": {"city_name": "Bristol", "country": "United Kingdom", "location": {"latitude": 51.454513, "longitude": -2.5879099999999653}, "city_code": "BRIS-sky", "population": 449328}, "took": 0.62029}, {"url": "http://localhost:8080/weather", "status_code": 200, "call_id": 188, "payload": {"city_name": "Madrid", "country": "Spain", "location": {"latitude": 40.4167754, "longitude": -3.7037901999999576}, "city_code": "MADR-sky", "population": 3141991}, "took": 0.573869}, {"url": "http://localhost:8080/weather", "status_code": 200, "call_id": 189, "payload": {"city_name": "Barcelona", "country": "Spain", "location": {"latitude": 41.38506389999999, "longitude": 2.1734034999999494}, "city_code": "BARC-sky", "population": 1608746}, "took": 1.051181}, {"url": "http://localhost:8080/weather", "status_code": 200, "call_id": 190, "payload": {"city_name": "Valencia", "country": "Spain", "location": {"latitude": 39.4699075, "longitude": -0.3762881000000107}, "city_code": "VALE-sky", "population": 786189}, "took": 0.575328}, {"url": "http://localhost:8080/weather", "status_code": 200, "call_id": 191, "payload": {"city_name": "Seville", "country": "Spain", "location": {"latitude": 37.3890924, "longitude": -5.984458899999936}, "city_code": "SEVI-sky", "population": 693878}, "took": 1.184762}, {"url": "http://localhost:8080/skyscanner", "status_code": 200, "call_id": 192, "payload": {"city_b": {"city_name": "Berlin", "country": "Germany", "location": {"latitude": 52.52000659999999, "longitude": 13.404953999999975}, "city_code": "BERL-sky", "population": 3671000}, "city_a": {"city_name": "Berlin", "country": "Germany", "location": {"latitude": 52.52000659999999, "longitude": 13.404953999999975}, "city_code": "BERL-sky", "population": 3671000}}, "took": 0.582555}, {"url": "http://localhost:8080/skyscanner", "status_code": 200, "call_id": 193, "payload": {"city_b": {"city_name": "Munich", "country": "Germany", "location": {"latitude": 48.1351253, "longitude": 11.581980599999952}, "city_code": "MUNI-sky", "population": 1185400}, "city_a": {"city_name": "Hamburg", "country": "Germany", "location": {"latitude": 53.5510846, "longitude": 9.99368179999999}, "city_code": "HAMB-sky", "population": 1686100}}, "took": 1.143987}, {"url": "http://localhost:8080/skyscanner", "status_code": 200, "call_id": 194, "payload": {"city_b": {"city_name": "Frankfurt", "country": "Germany", "location": {"latitude": 50.11092209999999, "longitude": 8.682126700000026}, "city_code": "FRAN-sky", "population": 720000}, "city_a": {"city_name": "Munich", "country": "Germany", "location": {"latitude": 48.1351253, "longitude": 11.581980599999952}, "city_code": "MUNI-sky", "population": 1185400}}, "took": 1.165712}, {"url": "http://localhost:8080/skyscanner", "status_code": 200, "call_id": 195, "payload": {"city_b": {"city_name": "Stuttgart", "country": "Germany", "location": {"latitude": 48.7758459, "longitude": 9.182932100000016}, "city_code": "STUT-sky", "population": 581100}, "city_a": {"city_name": "Cologne", "country": "Germany", "location": {"latitude": 50.937531, "longitude": 6.960278600000038}, "city_code": "COLO-sky", "population": 1060582}}, "took": 0.722465}, {"url": "http://localhost:8080/skyscanner", "status_code": 200, "call_id": 196, "payload": {"city_b": {"city_name": "Bremen", "country": "Germany", "location": {"latitude": 53.07929619999999, "longitude": 8.801693699999987}, "city_code": "BREM-sky", "population": 527900}, "city_a": {"city_name": "Frankfurt", "country": "Germany", "location": {"latitude": 50.11092209999999, "longitude": 8.682126700000026}, "city_code": "FRAN-sky", "population": 720000}}, "took": 0.605851}, {"url": "http://localhost:8080/skyscanner", "status_code": 200, "call_id": 197, "payload": {"city_b": {"city_name": "Nuremberg", "country": "Germany", "location": {"latitude": 49.4254092, "longitude": 49.4254092}, "city_code": "NURE-sky", "population": 486700}, "city_a": {"city_name": "Dortmund", "country": "Germany", "location": {"latitude": 51.5135872, "longitude": 7.465298100000041}, "city_code": "DORT-sky", "population": 587600}}, "took": 1.07015}, {"url": "http://localhost:8080/skyscanner", "status_code": 200, "call_id": 198, "payload": {"city_b": {"city_name": "Dresden", "country": "Germany", "location": {"latitude": 51.05040880000001, "longitude": 13.737262099999953}, "city_code": "DRES-sky", "population": 473300}, "city_a": {"city_name": "Stuttgart", "country": "Germany", "location": {"latitude": 48.7758459, "longitude": 9.182932100000016}, "city_code": "STUT-sky", "population": 581100}}, "took": 1.138189}, {"url": "http://localhost:8080/skyscanner", "status_code": 200, "call_id": 199, "payload": {"city_b": {"city_name": "Birmingham", "country": "United Kingdom", "location": {"latitude": 52.48624299999999, "longitude": -1.8904009999999971}, "city_code": "BIRM-sky", "population": 1111307}, "city_a": {"city_name": "Dusseldorf", "country": "Germany", "location": {"latitude": 51.2277411, "longitude": 6.773455600000034}, "city_code": "DUSS-sky", "population": 568900}}, "took": 0.742706}, {"url": "http://localhost:8080/skyscanner", "status_code": 200, "call_id": 200, "payload": {"city_b": {"city_name": "Glasgow", "country": "United Kingdom", "location": {"latitude": 55.864237, "longitude": -4.251805999999988}, "city_code": "GLAS-sky", "population": 606340}, "city_a": {"city_name": "Bremen", "country": "Germany", "location": {"latitude": 53.07929619999999, "longitude": 8.801693699999987}, "city_code": "BREM-sky", "population": 527900}}, "took": 1.093034}, {"url": "http://localhost:8080/skyscanner", "status_code": 200, "call_id": 201, "payload": {"city_b": {"city_name": "Bradford", "country": "United Kingdom", "location": {"latitude": 53.795984, "longitude": -1.7593980000000329}, "city_code": "BFDA-sky", "population": 531176}, "city_a": {"city_name": "Hanover", "country": "Germany", "location": {"latitude": 52.3758916, "longitude": 9.732010400000036}, "city_code": "HANN-sky", "population": 516300}}, "took": 1.172598}, {"url": "http://localhost:8080/skyscanner", "status_code": 200, "call_id": 202, "payload": {"city_b": {"city_name": "Edinburgh", "country": "United Kingdom", "location": {"latitude": 55.953252, "longitude": -3.188266999999996}, "city_code": "EDIN-sky", "population": 498810}, "city_a": {"city_name": "Nuremberg", "country": "Germany", "location": {"latitude": 49.4254092, "longitude": 49.4254092}, "city_code": "NURE-sky", "population": 486700}}, "took": 0.810174}, {"url": "http://localhost:8080/skyscanner", "status_code": 200, "call_id": 203, "payload": {"city_b": {"city_name": "Bristol", "country": "United Kingdom", "location": {"latitude": 51.454513, "longitude": -2.5879099999999653}, "city_code": "BRIS-sky", "population": 449328}, "city_a": {"city_name": "Leipzig", "country": "Germany", "location": {"latitude": 51.3396955, "longitude": 12.373074699999961}, "city_code": "LEIP-sky", "population": 486100}}, "took": 1.21593}, {"url": "http://localhost:8080/skyscanner", "status_code": 200, "call_id": 204, "payload": {"city_b": {"city_name": "Barcelona", "country": "Spain", "location": {"latitude": 41.38506389999999, "longitude": 2.1734034999999494}, "city_code": "BARC-sky", "population": 1608746}, "city_a": {"city_name": "Dresden", "country": "Germany", "location": {"latitude": 51.05040880000001, "longitude": 13.737262099999953}, "city_code": "DRES-sky", "population": 473300}}, "took": 1.114351}, {"url": "http://localhost:8080/skyscanner", "status_code": 200, "call_id": 205, "payload": {"city_b": {"city_name": "Seville", "country": "Spain", "location": {"latitude": 37.3890924, "longitude": -5.984458899999936}, "city_code": "SEVI-sky", "population": 693878}, "city_a": {"city_name": "London", "country": "United Kingdom", "location": {"latitude": 51.5073509, "longitude": -0.12775829999998223}, "city_code": "LOND-sky", "population": 8673713}}, "took": 0.669162}, {"url": "http://localhost:8080/skyscanner", "status_code": 200, "call_id": 206, "payload": {"city_b": {"city_name": "Malaga", "country": "Spain", "location": {"latitude": 36.721261, "longitude": -4.421265500000004}, "city_code": "MALA-sky", "population": 569130}, "city_a": {"city_name": "Birmingham", "country": "United Kingdom", "location": {"latitude": 52.48624299999999, "longitude": -1.8904009999999971}, "city_code": "BIRM-sky", "population": 1111307}}, "took": 4.461692}, {"url": "http://localhost:8080/skyscanner", "status_code": 200, "call_id": 207, "payload": {"city_b": {"city_name": "Palma de Mallorca", "country": "Spain", "location": {"latitude": 39.5696005, "longitude": 2.6501603000000387}, "city_code": "PALM-sky", "population": 400578}, "city_a": {"city_name": "Leeds", "country": "United Kingdom", "location": {"latitude": 53.8007554, "longitude": -1.5490773999999874}, "city_code": "LEED-sky", "population": 774060}}, "took": 0.584491}, {"url": "http://localhost:8080/skyscanner", "status_code": 200, "call_id": 208, "payload": {"city_b": {"city_name": "Milan", "country": "Italy", "location": {"latitude": 45.4654219, "longitude": 9.18592430000001}, "city_code": "MILA-sky", "population": 1368590}, "city_a": {"city_name": "Glasgow", "country": "United Kingdom", "location": {"latitude": 55.864237, "longitude": -4.251805999999988}, "city_code": "GLAS-sky", "population": 606340}}, "took": 0.540708}, {"url": "http://localhost:8080/skyscanner", "status_code": 200, "call_id": 209, "payload": {"city_b": {"city_name": "Turin", "country": "Italy", "location": {"latitude": 45.063299, "longitude": 7.669288999999935}, "city_code": "TURI-sky", "population": 892649}, "city_a": {"city_name": "Sheffield", "country": "United Kingdom", "location": {"latitude": 53.38112899999999, "longitude": -1.47008500000004}, "city_code": "DONC-sky", "population": 569737}}, "took": 1.11547}, {"url": "http://localhost:8080/skyscanner", "status_code": 200, "call_id": 210, "payload": {"city_b": {"city_name": "Paris", "country": "France", "location": {"latitude": 48.85661400000001, "longitude": 2.3522219000000177}, "city_code": "PARI-sky", "population": 2244000}, "city_a": {"city_name": "Bradford", "country": "United Kingdom", "location": {"latitude": 53.795984, "longitude": -1.7593980000000329}, "city_code": "BFDA-sky", "population": 531176}}, "took": 0.782833}, {"url": "http://localhost:8080/skyscanner", "status_code": 200, "call_id": 211, "payload": {"city_b": {"city_name": "Hamburg", "country": "Germany", "location": {"latitude": 53.5510846, "longitude": 9.99368179999999}, "city_code": "HAMB-sky", "population": 1686100}, "city_a": {"city_name": "Manchester", "country": "United Kingdom", "location": {"latitude": 53.4807593, "longitude": -2.2426305000000184}, "city_code": "MANC-sky", "population": 530292}}, "took": 2.775363}, {"url": "http://localhost:8080/skyscanner", "status_code": 200, "call_id": 212, "payload": {"city_b": {"city_name": "Cologne", "country": "Germany", "location": {"latitude": 50.937531, "longitude": 6.960278600000038}, "city_code": "COLO-sky", "population": 1060582}, "city_a": {"city_name": "Edinburgh", "country": "United Kingdom", "location": {"latitude": 55.953252, "longitude": -3.188266999999996}, "city_code": "EDIN-sky", "population": 498810}}, "took": 2.131589}, {"url": "http://localhost:8080/skyscanner", "status_code": 200, "call_id": 213, "payload": {"city_b": {"city_name": "Dortmund", "country": "Germany", "location": {"latitude": 51.5135872, "longitude": 7.465298100000041}, "city_code": "DORT-sky", "population": 587600}, "city_a": {"city_name": "Liverpool", "country": "United Kingdom", "location": {"latitude": 53.4083714, "longitude": -2.9915726000000404}, "city_code": "LIVE-sky", "population": 478580}}, "took": 0.555801}, {"url": "http://localhost:8080/skyscanner", "status_code": 200, "call_id": 214, "payload": {"city_b": {"city_name": "Dusseldorf", "country": "Germany", "location": {"latitude": 51.2277411, "longitude": 6.773455600000034}, "city_code": "DUSS-sky", "population": 568900}, "city_a": {"city_name": "Bristol", "country": "United Kingdom", "location": {"latitude": 51.454513, "longitude": -2.5879099999999653}, "city_code": "BRIS-sky", "population": 449328}}, "took": 1.607226}, {"url": "http://localhost:8080/skyscanner", "status_code": 200, "call_id": 215, "payload": {"city_b": {"city_name": "Hanover", "country": "Germany", "location": {"latitude": 52.3758916, "longitude": 9.732010400000036}, "city_code": "HANN-sky", "population": 516300}, "city_a": {"city_name": "Madrid", "country": "Spain", "location": {"latitude": 40.4167754, "longitude": -3.7037901999999576}, "city_code": "MADR-sky", "population": 3141991}}, "took": 0.615992}, {"url": "http://localhost:8080/skyscanner", "status_code": 200, "call_id": 216, "payload": {"city_b": {"city_name": "Leipzig", "country": "Germany", "location": {"latitude": 51.3396955, "longitude": 12.373074699999961}, "city_code": "LEIP-sky", "population": 486100}, "city_a": {"city_name": "Barcelona", "country": "Spain", "location": {"latitude": 41.38506389999999, "longitude": 2.1734034999999494}, "city_code": "BARC-sky", "population": 1608746}}, "took": 2.157358}, {"url": "http://localhost:8080/skyscanner", "status_code": 200, "call_id": 217, "payload": {"city_b": {"city_name": "London", "country": "United Kingdom", "location": {"latitude": 51.5073509, "longitude": -0.12775829999998223}, "city_code": "LOND-sky", "population": 8673713}, "city_a": {"city_name": "Valencia", "country": "Spain", "location": {"latitude": 39.4699075, "longitude": -0.3762881000000107}, "city_code": "VALE-sky", "population": 786189}}, "took": 1.191116}, {"url": "http://localhost:8080/skyscanner", "status_code": 200, "call_id": 218, "payload": {"city_b": {"city_name": "Leeds", "country": "United Kingdom", "location": {"latitude": 53.8007554, "longitude": -1.5490773999999874}, "city_code": "LEED-sky", "population": 774060}, "city_a": {"city_name": "Seville", "country": "Spain", "location": {"latitude": 37.3890924, "longitude": -5.984458899999936}, "city_code": "SEVI-sky", "population": 693878}}, "took": 0.736616}, {"url": "http://localhost:8080/skyscanner", "status_code": 200, "call_id": 219, "payload": {"city_b": {"city_name": "Sheffield", "country": "United Kingdom", "location": {"latitude": 53.38112899999999, "longitude": -1.47008500000004}, "city_code": "DONC-sky", "population": 569737}, "city_a": {"city_name": "Zaragoza", "country": "Spain", "location": {"latitude": 41.64882259999999, "longitude": -0.8890853000000334}, "city_code": "ZARA-sky", "population": 664953}}, "took": 0.60714}, {"url": "http://localhost:8080/skyscanner", "status_code": 200, "call_id": 220, "payload": {"city_b": {"city_name": "Manchester", "country": "United Kingdom", "location": {"latitude": 53.4807593, "longitude": -2.2426305000000184}, "city_code": "MANC-sky", "population": 530292}, "city_a": {"city_name": "Malaga", "country": "Spain", "location": {"latitude": 36.721261, "longitude": -4.421265500000004}, "city_code": "MALA-sky", "population": 569130}}, "took": 1.163284}, {"url": "http://localhost:8080/skyscanner", "status_code": 200, "call_id": 221, "payload": {"city_b": {"city_name": "Liverpool", "country": "United Kingdom", "location": {"latitude": 53.4083714, "longitude": -2.9915726000000404}, "city_code": "LIVE-sky", "population": 478580}, "city_a": {"city_name": "Murcia", "country": "Spain", "location": {"latitude": 37.99223990000001, "longitude": -1.1306544000000258}, "city_code": "MURC-sky", "population": 439889}}, "took": 0.734227}, {"url": "http://localhost:8080/skyscanner", "status_code": 200, "call_id": 222, "payload": {"city_b": {"city_name": "Madrid", "country": "Spain", "location": {"latitude": 40.4167754, "longitude": -3.7037901999999576}, "city_code": "MADR-sky", "population": 3141991}, "city_a": {"city_name": "Palma de Mallorca", "country": "Spain", "location": {"latitude": 39.5696005, "longitude": 2.6501603000000387}, "city_code": "PALM-sky", "population": 400578}}, "took": 1.217165}, {"url": "http://localhost:8080/skyscanner", "status_code": 200, "call_id": 223, "payload": {"city_b": {"city_name": "Valencia", "country": "Spain", "location": {"latitude": 39.4699075, "longitude": -0.3762881000000107}, "city_code": "VALE-sky", "population": 786189}, "city_a": {"city_name": "Rome", "country": "Italy", "location": {"latitude": 41.90278349999999, "longitude": 12.496365500000024}, "city_code": "ROME-sky", "population": 2870336}}, "took": 0.586146}, {"url": "http://localhost:8080/skyscanner", "status_code": 200, "call_id": 224, "payload": {"city_b": {"city_name": "Zaragoza", "country": "Spain", "location": {"latitude": 41.64882259999999, "longitude": -0.8890853000000334}, "city_code": "ZARA-sky", "population": 664953}, "city_a": {"city_name": "Milan", "country": "Italy", "location": {"latitude": 45.4654219, "longitude": 9.18592430000001}, "city_code": "MILA-sky", "population": 1368590}}, "took": 1.129777}, {"url": "http://localhost:8080/skyscanner", "status_code": 200, "call_id": 225, "payload": {"city_b": {"city_name": "Murcia", "country": "Spain", "location": {"latitude": 37.99223990000001, "longitude": -1.1306544000000258}, "city_code": "MURC-sky", "population": 439889}, "city_a": {"city_name": "Naples", "country": "Italy", "location": {"latitude": 40.8517746, "longitude": 14.268124400000033}, "city_code": "NAPL-sky", "population": 972638}}, "took": 0.737179}, {"url": "http://localhost:8080/skyscanner", "status_code": 200, "call_id": 226, "payload": {"city_b": {"city_name": "Rome", "country": "Italy", "location": {"latitude": 41.90278349999999, "longitude": 12.496365500000024}, "city_code": "ROME-sky", "population": 2870336}, "city_a": {"city_name": "Turin", "country": "Italy", "location": {"latitude": 45.063299, "longitude": 7.669288999999935}, "city_code": "TURI-sky", "population": 892649}}, "took": 1.259577}, {"url": "http://localhost:8080/skyscanner", "status_code": 200, "call_id": 227, "payload": {"city_b": {"city_name": "Naples", "country": "Italy", "location": {"latitude": 40.8517746, "longitude": 14.268124400000033}, "city_code": "NAPL-sky", "population": 972638}, "city_a": {"city_name": "Palermo", "country": "Italy", "location": {"latitude": 38.1156209, "longitude": 13.361318299999994}, "city_code": "PALE-sky", "population": 673073}}, "took": 3.876757}, {"url": "http://localhost:8080/skyscanner", "status_code": 200, "call_id": 228, "payload": {"city_b": {"city_name": "Palermo", "country": "Italy", "location": {"latitude": 38.1156209, "longitude": 13.361318299999994}, "city_code": "PALE-sky", "population": 673073}, "city_a": {"city_name": "Paris", "country": "France", "location": {"latitude": 48.85661400000001, "longitude": 2.3522219000000177}, "city_code": "PARI-sky", "population": 2244000}}, "took": 1.114133}, {"url": "http://localhost:8080/skyscanner", "status_code": 200, "call_id": 229, "payload": {"city_b": {"city_name": "Berlin", "country": "Germany", "location": {"latitude": 52.52000659999999, "longitude": 13.404953999999975}, "city_code": "BERL-sky", "population": 3671000}, "city_a": {"city_name": "Berlin", "country": "Germany", "location": {"latitude": 52.52000659999999, "longitude": 13.404953999999975}, "city_code": "BERL-sky", "population": 3671000}}, "took": 0.691765}, {"url": "http://localhost:8080/skyscanner", "status_code": 200, "call_id": 230, "payload": {"city_b": {"city_name": "Munich", "country": "Germany", "location": {"latitude": 48.1351253, "longitude": 11.581980599999952}, "city_code": "MUNI-sky", "population": 1185400}, "city_a": {"city_name": "Hamburg", "country": "Germany", "location": {"latitude": 53.5510846, "longitude": 9.99368179999999}, "city_code": "HAMB-sky", "population": 1686100}}, "took": 1.26307}, {"url": "http://localhost:8080/skyscanner", "status_code": 200, "call_id": 231, "payload": {"city_b": {"city_name": "Frankfurt", "country": "Germany", "location": {"latitude": 50.11092209999999, "longitude": 8.682126700000026}, "city_code": "FRAN-sky", "population": 720000}, "city_a": {"city_name": "Munich", "country": "Germany", "location": {"latitude": 48.1351253, "longitude": 11.581980599999952}, "city_code": "MUNI-sky", "population": 1185400}}, "took": 0.749387}, {"url": "http://localhost:8080/skyscanner", "status_code": 200, "call_id": 232, "payload": {"city_b": {"city_name": "Stuttgart", "country": "Germany", "location": {"latitude": 48.7758459, "longitude": 9.182932100000016}, "city_code": "STUT-sky", "population": 581100}, "city_a": {"city_name": "Cologne", "country": "Germany", "location": {"latitude": 50.937531, "longitude": 6.960278600000038}, "city_code": "COLO-sky", "population": 1060582}}, "took": 1.087585}, {"url": "http://localhost:8080/skyscanner", "status_code": 200, "call_id": 233, "payload": {"city_b": {"city_name": "Bremen", "country": "Germany", "location": {"latitude": 53.07929619999999, "longitude": 8.801693699999987}, "city_code": "BREM-sky", "population": 527900}, "city_a": {"city_name": "Frankfurt", "country": "Germany", "location": {"latitude": 50.11092209999999, "longitude": 8.682126700000026}, "city_code": "FRAN-sky", "population": 720000}}, "took": 0.646654}, {"url": "http://localhost:8080/skyscanner", "status_code": 200, "call_id": 234, "payload": {"city_b": {"city_name": "Nuremberg", "country": "Germany", "location": {"latitude": 49.4254092, "longitude": 49.4254092}, "city_code": "NURE-sky", "population": 486700}, "city_a": {"city_name": "Dortmund", "country": "Germany", "location": {"latitude": 51.5135872, "longitude": 7.465298100000041}, "city_code": "DORT-sky", "population": 587600}}, "took": 1.291032}, {"url": "http://localhost:8080/skyscanner", "status_code": 200, "call_id": 235, "payload": {"city_b": {"city_name": "Dresden", "country": "Germany", "location": {"latitude": 51.05040880000001, "longitude": 13.737262099999953}, "city_code": "DRES-sky", "population": 473300}, "city_a": {"city_name": "Stuttgart", "country": "Germany", "location": {"latitude": 48.7758459, "longitude": 9.182932100000016}, "city_code": "STUT-sky", "population": 581100}}, "took": 0.754921}, {"url": "http://localhost:8080/skyscanner", "status_code": 200, "call_id": 236, "payload": {"city_b": {"city_name": "Birmingham", "country": "United Kingdom", "location": {"latitude": 52.48624299999999, "longitude": -1.8904009999999971}, "city_code": "BIRM-sky", "population": 1111307}, "city_a": {"city_name": "Dusseldorf", "country": "Germany", "location": {"latitude": 51.2277411, "longitude": 6.773455600000034}, "city_code": "DUSS-sky", "population": 568900}}, "took": 1.147351}, {"url": "http://localhost:8080/skyscanner", "status_code": 200, "call_id": 237, "payload": {"city_b": {"city_name": "Glasgow", "country": "United Kingdom", "location": {"latitude": 55.864237, "longitude": -4.251805999999988}, "city_code": "GLAS-sky", "population": 606340}, "city_a": {"city_name": "Bremen", "country": "Germany", "location": {"latitude": 53.07929619999999, "longitude": 8.801693699999987}, "city_code": "BREM-sky", "population": 527900}}, "took": 0.599094}, {"url": "http://localhost:8080/skyscanner", "status_code": 200, "call_id": 238, "payload": {"city_b": {"city_name": "Bradford", "country": "United Kingdom", "location": {"latitude": 53.795984, "longitude": -1.7593980000000329}, "city_code": "BFDA-sky", "population": 531176}, "city_a": {"city_name": "Hanover", "country": "Germany", "location": {"latitude": 52.3758916, "longitude": 9.732010400000036}, "city_code": "HANN-sky", "population": 516300}}, "took": 1.169064}, {"url": "http://localhost:8080/skyscanner", "status_code": 200, "call_id": 239, "payload": {"city_b": {"city_name": "Edinburgh", "country": "United Kingdom", "location": {"latitude": 55.953252, "longitude": -3.188266999999996}, "city_code": "EDIN-sky", "population": 498810}, "city_a": {"city_name": "Nuremberg", "country": "Germany", "location": {"latitude": 49.4254092, "longitude": 49.4254092}, "city_code": "NURE-sky", "population": 486700}}, "took": 0.680599}, {"url": "http://localhost:8080/skyscanner", "status_code": 200, "call_id": 240, "payload": {"city_b": {"city_name": "Bristol", "country": "United Kingdom", "location": {"latitude": 51.454513, "longitude": -2.5879099999999653}, "city_code": "BRIS-sky", "population": 449328}, "city_a": {"city_name": "Leipzig", "country": "Germany", "location": {"latitude": 51.3396955, "longitude": 12.373074699999961}, "city_code": "LEIP-sky", "population": 486100}}, "took": 1.212362}, {"url": "http://localhost:8080/skyscanner", "status_code": 200, "call_id": 241, "payload": {"city_b": {"city_name": "Barcelona", "country": "Spain", "location": {"latitude": 41.38506389999999, "longitude": 2.1734034999999494}, "city_code": "BARC-sky", "population": 1608746}, "city_a": {"city_name": "Dresden", "country": "Germany", "location": {"latitude": 51.05040880000001, "longitude": 13.737262099999953}, "city_code": "DRES-sky", "population": 473300}}, "took": 0.581238}, {"url": "http://localhost:8080/skyscanner", "status_code": 200, "call_id": 242, "payload": {"city_b": {"city_name": "Seville", "country": "Spain", "location": {"latitude": 37.3890924, "longitude": -5.984458899999936}, "city_code": "SEVI-sky", "population": 693878}, "city_a": {"city_name": "London", "country": "United Kingdom", "location": {"latitude": 51.5073509, "longitude": -0.12775829999998223}, "city_code": "LOND-sky", "population": 8673713}}, "took": 0.613721}, {"url": "http://localhost:8080/skyscanner", "status_code": 200, "call_id": 243, "payload": {"city_b": {"city_name": "Malaga", "country": "Spain", "location": {"latitude": 36.721261, "longitude": -4.421265500000004}, "city_code": "MALA-sky", "population": 569130}, "city_a": {"city_name": "Birmingham", "country": "United Kingdom", "location": {"latitude": 52.48624299999999, "longitude": -1.8904009999999971}, "city_code": "BIRM-sky", "population": 1111307}}, "took": 0.66387}, {"url": "http://localhost:8080/skyscanner", "status_code": 200, "call_id": 244, "payload": {"city_b": {"city_name": "Palma de Mallorca", "country": "Spain", "location": {"latitude": 39.5696005, "longitude": 2.6501603000000387}, "city_code": "PALM-sky", "population": 400578}, "city_a": {"city_name": "Leeds", "country": "United Kingdom", "location": {"latitude": 53.8007554, "longitude": -1.5490773999999874}, "city_code": "LEED-sky", "population": 774060}}, "took": 1.18482}, {"url": "http://localhost:8080/skyscanner", "status_code": 200, "call_id": 245, "payload": {"city_b": {"city_name": "Milan", "country": "Italy", "location": {"latitude": 45.4654219, "longitude": 9.18592430000001}, "city_code": "MILA-sky", "population": 1368590}, "city_a": {"city_name": "Glasgow", "country": "United Kingdom", "location": {"latitude": 55.864237, "longitude": -4.251805999999988}, "city_code": "GLAS-sky", "population": 606340}}, "took": 1.140086}, {"url": "http://localhost:8080/skyscanner", "status_code": 200, "call_id": 246, "payload": {"city_b": {"city_name": "Turin", "country": "Italy", "location": {"latitude": 45.063299, "longitude": 7.669288999999935}, "city_code": "TURI-sky", "population": 892649}, "city_a": {"city_name": "Sheffield", "country": "United Kingdom", "location": {"latitude": 53.38112899999999, "longitude": -1.47008500000004}, "city_code": "DONC-sky", "population": 569737}}, "took": 0.724828}, {"url": "http://localhost:8080/skyscanner", "status_code": 200, "call_id": 247, "payload": {"city_b": {"city_name": "Paris", "country": "France", "location": {"latitude": 48.85661400000001, "longitude": 2.3522219000000177}, "city_code": "PARI-sky", "population": 2244000}, "city_a": {"city_name": "Bradford", "country": "United Kingdom", "location": {"latitude": 53.795984, "longitude": -1.7593980000000329}, "city_code": "BFDA-sky", "population": 531176}}, "took": 0.599325}, {"url": "http://localhost:8080/skyscanner", "status_code": 200, "call_id": 248, "payload": {"city_b": {"city_name": "Hamburg", "country": "Germany", "location": {"latitude": 53.5510846, "longitude": 9.99368179999999}, "city_code": "HAMB-sky", "population": 1686100}, "city_a": {"city_name": "Manchester", "country": "United Kingdom", "location": {"latitude": 53.4807593, "longitude": -2.2426305000000184}, "city_code": "MANC-sky", "population": 530292}}, "took": 0.774542}, {"url": "http://localhost:8080/skyscanner", "status_code": 200, "call_id": 249, "payload": {"city_b": {"city_name": "Cologne", "country": "Germany", "location": {"latitude": 50.937531, "longitude": 6.960278600000038}, "city_code": "COLO-sky", "population": 1060582}, "city_a": {"city_name": "Edinburgh", "country": "United Kingdom", "location": {"latitude": 55.953252, "longitude": -3.188266999999996}, "city_code": "EDIN-sky", "population": 498810}}, "took": 1.107878}, {"url": "http://localhost:8080/skyscanner", "status_code": 200, "call_id": 250, "payload": {"city_b": {"city_name": "Dortmund", "country": "Germany", "location": {"latitude": 51.5135872, "longitude": 7.465298100000041}, "city_code": "DORT-sky", "population": 587600}, "city_a": {"city_name": "Liverpool", "country": "United Kingdom", "location": {"latitude": 53.4083714, "longitude": -2.9915726000000404}, "city_code": "LIVE-sky", "population": 478580}}, "took": 0.536702}, {"url": "http://localhost:8080/skyscanner", "status_code": 200, "call_id": 251, "payload": {"city_b": {"city_name": "Dusseldorf", "country": "Germany", "location": {"latitude": 51.2277411, "longitude": 6.773455600000034}, "city_code": "DUSS-sky", "population": 568900}, "city_a": {"city_name": "Bristol", "country": "United Kingdom", "location": {"latitude": 51.454513, "longitude": -2.5879099999999653}, "city_code": "BRIS-sky", "population": 449328}}, "took": 0.56845}, {"url": "http://localhost:8080/skyscanner", "status_code": 200, "call_id": 252, "payload": {"city_b": {"city_name": "Hanover", "country": "Germany", "location": {"latitude": 52.3758916, "longitude": 9.732010400000036}, "city_code": "HANN-sky", "population": 516300}, "city_a": {"city_name": "Madrid", "country": "Spain", "location": {"latitude": 40.4167754, "longitude": -3.7037901999999576}, "city_code": "MADR-sky", "population": 3141991}}, "took": 0.76166}, {"url": "http://localhost:8080/skyscanner", "status_code": 200, "call_id": 253, "payload": {"city_b": {"city_name": "Leipzig", "country": "Germany", "location": {"latitude": 51.3396955, "longitude": 12.373074699999961}, "city_code": "LEIP-sky", "population": 486100}, "city_a": {"city_name": "Barcelona", "country": "Spain", "location": {"latitude": 41.38506389999999, "longitude": 2.1734034999999494}, "city_code": "BARC-sky", "population": 1608746}}, "took": 0.720478}, {"url": "http://localhost:8080/skyscanner", "status_code": 200, "call_id": 254, "payload": {"city_b": {"city_name": "London", "country": "United Kingdom", "location": {"latitude": 51.5073509, "longitude": -0.12775829999998223}, "city_code": "LOND-sky", "population": 8673713}, "city_a": {"city_name": "Valencia", "country": "Spain", "location": {"latitude": 39.4699075, "longitude": -0.3762881000000107}, "city_code": "VALE-sky", "population": 786189}}, "took": 0.556742}, {"url": "http://localhost:8080/skyscanner", "status_code": 200, "call_id": 255, "payload": {"city_b": {"city_name": "Leeds", "country": "United Kingdom", "location": {"latitude": 53.8007554, "longitude": -1.5490773999999874}, "city_code": "LEED-sky", "population": 774060}, "city_a": {"city_name": "Seville", "country": "Spain", "location": {"latitude": 37.3890924, "longitude": -5.984458899999936}, "city_code": "SEVI-sky", "population": 693878}}, "took": 0.721636}]